Email,First Name,Last Name,Residential Address Street,Residential Address Locality,Residential Address State,Residential Address Postcode,Postal Address Street,Postal Address Locality,Postal Address State,Postal Address Postcode,Residential_lat,Residential_lng,Postal_lat,Postal_lng
colton_tromp@gmail.com,Darcy,Waters,8540 Charli Summit,AIRLIE BEACH,QLD,4802,376 Williamson Hill,ARTHUR RIVER,WA,6315,-20.272494000000002,148.71814657732955,-33.3441135,117.01571419732676
lindsay_bradtke@gmail.com,Georgia,Stewart,650 Harris Summit,ARCTURUS,QLD,4722,477 Jasmine Circle,ALDINGA,SA,5173,-23.975732999999998,148.32711448169016,-35.2673234,138.4831296
jaime_kuphal@yahoo.com,Joshua,Schmidt,53 Klein Circle,AMBLESIDE,TAS,7310,2979 Anthony Drive,AMOR,VIC,3825,-41.2050163,146.3748003,-37.939795000000004,146.4046230412041
odell.king@hotmail.com,Natalie,Smith,545 Summer Avenue,ALVIE,VIC,3249,5454 Koss Track,ANABRANCH SOUTH,NSW,2648,-38.2441811,143.5155992,-33.6929151,141.7057254
carlos@hotmail.com,Cameron,Schneider,46 Becker Summit,ALLANSFORD,VIC,3277,3137 Lakin Station St,ALLANS FLAT,VIC,3691,-38.3862028,142.6001551,-36.2944155,146.94292341122937
june@gmail.com,Oscar,King,727 Zoe Knoll,ADELAIDE RIVER,NT,846,71 Morissette Manor,AMHERST,VIC,3371,-13.2387657,131.1070072,-37.139846500000004,143.65653903202832
linsey.blanda@hotmail.com,Mia,Flatley,15 Hannah Circle,ARMADALE,WA,6112,696 Jenkins Parkway,AMBERLEY,QLD,4306,-32.1533106,116.0130563,-27.6304065,152.6980108651208
roger.prohaska@gmail.com,Charles,Wilson,85 Isaac Terrace,ALEXANDRA HILLS,QLD,3161,5414 Leannon Crest,ALSACE,QLD,4702,-27.5232672,153.2214907,-23.287394,149.2905304575663
arthur@yahoo.com,Owen,Carter,9300 Moss Run,ANKETELL,WA,6167,99 Levi Summit,ADARE,QLD,4343,-32.2197553,115.8667368,-27.5123015,152.28868017258898
barrett@yahoo.com,Ashley,Green,5023 Nader Lane,ANDAMOOKA,SA,5722,92 Bergstrom Run,ANTONYMYRE,WA,6714,-30.4534886,137.16501576788045,-20.6267825,117.07780048166553
salvatore_schuppe@gmail.com,Aidan,Kuhlman,201 Durgan Mall,ANNADALE,SA,5356,26 Cassin Knoll,ALEXANDRA HEADLAND,QLD,4572,-34.3891665,139.3881387,-26.669601999999998,153.10175199135801
karl@yahoo.com,Alexandra,Clarke,6591 Natalie Meadow,ARROWSMITH,WA,6525,8719 Adams Place,ANSONS BAY,TAS,7264,-29.554151,115.11588485488761,-41.0372935,148.2691093
karyn.kub@gmail.com,Samantha,Champlin,79 Eve Pass,ADARE,QLD,4343,67 Erdman Island,AUGATHELLA,QLD,4477,-27.5123015,152.28868017258898,-25.7968515,146.5891538
mackenzie_auer@gmail.com,Cameron,Haley,351 Heidi Court,ALPHINGTON,VIC,3078,460 Mccullough Manor,AIRVILLE,QLD,4807,-37.7783921,145.0312833,-19.6372465,147.35056619813304
lea.cummings@hotmail.com,Daniel,Braun,80 Ernser Avenue,ANNADALE,SA,5356,89 Eva Boulevard,AIRLY,VIC,3851,-34.3891665,139.3881387,-38.025259,147.10062811660103
julian@yahoo.com,Luke,Dare,544 Sanford Pass,AYLMERTON,NSW,2575,715 Tremblay Street,ARTHUR RIVER,TAS,7330,-34.4185998,150.4953005,-41.0494219,144.667346
sandee@yahoo.com,Blake,Feeney,2442 Grimes Island,ASHMONT,NSW,2650,174 Isabelle Track,AVISFORD,NSW,2850,-35.1244827,147.3325101,-32.739771,149.4823469
twila_morar@yahoo.com,Bella,Lockman,8813 Emily Meadow,ARMSTRONG CREEK,VIC,3217,74 Ali Circuit,ALLWORTH,NSW,2425,-38.2341184,144.3709512,-32.5399586,151.9589534
maryjo@yahoo.com,Lucy,Stokes,888 Mackenzie Ridge,AARONS PASS,NSW,2850,7423 Crooks Crest,ADAMSTOWN,NSW,2289,-32.8719444,149.8094444,-32.9337786,151.7200237
phillip@gmail.com,Archie,Barton,41 Taylor View Rd,ANGLEDOOL,NSW,2834,796 Madison Crest,ALMONDS,VIC,3727,-29.1100681,147.9176423,-36.2341665,146.05603068699222
sol@gmail.com,Jett,Monahan,8845 Braun Hill,ARMADALE,WA,6112,61 Emily Place,ANAMBAH,NSW,2320,-32.1533106,116.0130563,-32.6733333,151.4927778
aileen.berge@yahoo.com,Phoebe,Dare,823 O'neill Place,ALLENS RIVULET,TAS,7150,58 Walsh Trail,ARAKOON,NSW,2431,-43.01196,147.20886,-30.8864757,153.0709147
ozie.herzog@gmail.com,Lachlan,Howell,91 Samantha Parkway,ADAMS ESTATE,VIC,3984,9367 Smyth Way,ALBANY,WA,6330,-38.4247705,145.53145261079874,-35.0247822,117.883608
deane_donnelly@gmail.com,Alexander,Walker,25 Grace Crescent,APPILA,SA,5480,8683 Leffler Boulevard,ANDERGROVE,QLD,4740,-33.0497098,138.4289329,-21.0898372,149.1903543
ona@hotmail.com,Summer,Hand,24 Matilda Station St,ARCOONA,SA,5720,81 Bayer Loop,ABINGTON,QLD,4660,-31.1302928,137.1034847277803,-25.2021516,152.3270752
oren.west@yahoo.com,Archie,Douglas,15 Alyssa Street,ALBION PARK RAIL,NSW,2527,2907 Isabelle Terrace,ABERFOYLE PARK,SA,5159,-34.5625775,150.7978168,-35.0705635,138.6011311
todd@yahoo.com,Riley,West,2122 Goodwin Avenue,ARCADIA SOUTH,VIC,3631,2782 Carroll Street,ABERCORN,QLD,4627,-36.5931025,145.38127437318553,-25.137580999999997,151.15858654078357
loreta.bernier@hotmail.com,Audrey,Rohan,264 Maya Station St,APPLECROSS,WA,6153,770 Mason Plaza,AITKENVALE,QLD,4814,-32.0137091,115.8366566,-19.3019469,146.7660472
major_hermann@hotmail.com,Natalie,Hammes,33 Durgan Circle,AREEGRA,VIC,3480,1531 Victoria Parade,ARMIDALE,NSW,2350,-36.2320385,142.6799121472199,-30.5144881,151.6656564
hunter@gmail.com,Edward,Parisian,62 Lachlan Run,ARKAROOLA VILLAGE,SA,5732,201 Khan Street,ANTIGUA,QLD,4650,-30.3118393,139.3353485,-25.636086499999998,152.5914461311075
lanny.fay@gmail.com,Marcus,Kutch,2245 Jett Square,ARDROSSAN,SA,5571,7267 Chelsea Loop,ARCADIA,QLD,4819,-34.424675,137.915867,-19.1432945,146.85957385277385
ruthie@yahoo.com,Eli,Wood,157 Amy Crest,ASHBOURNE,VIC,3442,8970 Eve Terrace,AURUKUN,QLD,4892,-37.411647,144.46035695739747,-13.6020675,141.77068488792847
jim@yahoo.com,Phoenix,Douglas,6855 Erdman Mews,ARIAH PARK,NSW,2665,237 Williams Way,ADJUNGBILLY,NSW,2727,-34.3488941,147.2175709,-35.0859511,148.3985662
rima@gmail.com,Georgia,Adams,23 Bogan Parade,AGNES BANKS,NSW,2753,2053 Fay Run,ARCHIES CREEK,VIC,3995,-33.6145082,150.7114482,-38.548863,145.56498054788307
lamont@hotmail.com,Sarah,Boyle,3934 Levi Meadow,ALBION,QLD,4010,33 Oliver Estate Dr,ARTHURS CREEK,VIC,3099,-27.4303648,153.0420618,-37.5836798,145.207132
tod@yahoo.com,Abbey,Wilderman,77 Lowe Lane,ANTONYMYRE,WA,6714,183 Hugo Pass,ALAWOONA,SA,5311,-20.6267825,117.07780048166553,-34.7363837,140.509663
shantell@hotmail.com,Gemma,Cox,31 Sam Track,AUSTINS FERRY,TAS,7011,18 Skye Parade,ANTONYMYRE,WA,6714,-42.7736101,147.2486399,-20.6267825,117.07780048166553
margorie.larkin@gmail.com,Eli,Mayer,522 Scarlett Ridge,AVONDALE,NSW,2530,77 Zac Crescent,ANGURUGU,NT,822,-34.5230556,150.7327778,-13.9795273,136.4613667
